[
  { "nombre": "Barrio Acantilados", "lat": -38.1155, "lon": -57.5850 },
  { "nombre": "Barrio Aeroparque", "lat": -37.9650, "lon": -57.5950 },
  { "nombre": "Barrio Alem", "lat": -38.0215, "lon": -57.5458 },
  { "nombre": "Barrio Alfar", "lat": -38.0932, "lon": -57.5586 },
  { "nombre": "Barrio Ameghino", "lat": -37.9750, "lon": -57.6100 },
  { "nombre": "Barrio Batán", "lat": -38.0050, "lon": -57.7150 },
  { "nombre": "Barrio Belgrano", "lat": -38.0150, "lon": -57.6100 },
  { "nombre": "Barrio Bernardino Rivadavia", "lat": -38.0125, "lon": -57.5750 },
  { "nombre": "Barrio Bosque Peralta Ramos", "lat": -38.0700, "lon": -57.5650 },
  { "nombre": "Barrio Caisamar", "lat": -37.9550, "lon": -57.5600 },
  { "nombre": "Barrio Camet (Parque)", "lat": -37.9350, "lon": -57.5500 },
  { "nombre": "Barrio Centenario", "lat": -38.0100, "lon": -57.5750 },
  { "nombre": "Barrio Centro", "lat": -38.0000, "lon": -57.5430 },
  { "nombre": "Barrio Cerrito Sur", "lat": -38.0450, "lon": -57.5700 },
  { "nombre": "Barrio Chapadmalal", "lat": -38.1750, "lon": -57.6250 },
  { "nombre": "Barrio Chauvín", "lat": -38.0150, "lon": -57.5550 },
  { "nombre": "Barrio Colinas de Peralta Ramos", "lat": -38.0551, "lon": -57.5595 },
  { "nombre": "Barrio Colón", "lat": -38.0050, "lon": -57.5600 },
  { "nombre": "Barrio Constitución", "lat": -37.9800, "lon": -57.5600 },
  { "nombre": "Barrio Costa Azul", "lat": -38.1000, "lon": -57.5800 },
  { "nombre": "Barrio Divino Rostro", "lat": -38.0200, "lon": -57.5600 },
  { "nombre": "Barrio Don Bosco", "lat": -37.9950, "lon": -57.5700 },
  { "nombre": "Barrio El Gaucho", "lat": -38.0250, "lon": -57.5900 },
  { "nombre": "Barrio El Martillo", "lat": -38.0300, "lon": -57.5850 },
  { "nombre": "Barrio El Progreso", "lat": -38.0350, "lon": -57.5750 },
  { "nombre": "Barrio Faro Norte", "lat": -38.0816, "lon": -57.5442 },
  { "nombre": "Barrio Félix U. Camet", "lat": -37.9150, "lon": -57.5300 },
  { "nombre": "Barrio Florencio Sánchez", "lat": -38.0400, "lon": -57.5800 },
  { "nombre": "Barrio Fortunato de la Plaza", "lat": -38.0400, "lon": -57.5900 },
  { "nombre": "Barrio Güemes", "lat": -38.0130, "lon": -57.5380 },
  { "nombre": "Barrio Juramento", "lat": -38.0571, "lon": -57.5725 },
  { "nombre": "Barrio La Florida", "lat": -37.9600, "lon": -57.5750 },
  { "nombre": "Barrio La Perla", "lat": -37.9920, "lon": -57.5480 },
  { "nombre": "Barrio Las Avenidas", "lat": -38.0280, "lon": -57.5700 },
  { "nombre": "Barrio Las Dalias", "lat": -37.9400, "lon": -57.5700 },
  { "nombre": "Barrio Las Lilas", "lat": -38.0000, "lon": -57.6000 },
  { "nombre": "Barrio Libertad", "lat": -37.9750, "lon": -57.5950 },
  { "nombre": "Barrio López de Gomara", "lat": -37.9650, "lon": -57.5650 },
  { "nombre": "Barrio Los Andes", "lat": -37.9900, "lon": -57.5800 },
  { "nombre": "Barrio Los Pinares", "lat": -37.9700, "lon": -57.5650 },
  { "nombre": "Barrio Los Troncos", "lat": -38.0200, "lon": -57.5350 },
  { "nombre": "Barrio Luro", "lat": -37.9900, "lon": -57.5600 },
  { "nombre": "Barrio Macrocentro", "lat": -38.0050, "lon": -57.5500 },
  { "nombre": "Barrio Malvinas Argentinas", "lat": -37.9800, "lon": -57.6100 },
  { "nombre": "Barrio Nuevo Golf", "lat": -38.0550, "lon": -57.5750 },
  { "nombre": "Barrio Parque Luro", "lat": -37.9750, "lon": -57.5500 },
  { "nombre": "Barrio Peralta Ramos Oeste", "lat": -38.0350, "lon": -57.5850 },
  { "nombre": "Barrio Playa Grande", "lat": -38.0280, "lon": -57.5300 },
  { "nombre": "Barrio Playa Serena", "lat": -38.1150, "lon": -57.5950 },
  { "nombre": "Barrio Plaza Mitre", "lat": -38.0050, "lon": -57.5550 },
  { "nombre": "Barrio Pompeya", "lat": -37.9850, "lon": -57.5550 },
  { "nombre": "Barrio Primera Junta", "lat": -38.0200, "lon": -57.5500 },
  { "nombre": "Barrio Puerto", "lat": -38.0450, "lon": -57.5450 },
  { "nombre": "Barrio Punta Mogotes", "lat": -38.0550, "lon": -57.5450 },
  { "nombre": "Barrio Regional", "lat": -38.0100, "lon": -57.6050 },
  { "nombre": "Barrio San Carlos", "lat": -38.0250, "lon": -57.5450 },
  { "nombre": "Barrio San Cayetano", "lat": -37.9950, "lon": -57.5900 },
  { "nombre": "Barrio San Jacinto", "lat": -38.0950, "lon": -57.5650 },
  { "nombre": "Barrio San José", "lat": -38.0100, "lon": -57.5650 },
  { "nombre": "Barrio San Juan", "lat": -37.9950, "lon": -57.5650 },
  { "nombre": "Barrio San Patricio", "lat": -38.1250, "lon": -57.6050 },
  { "nombre": "Barrio Santa Clara del Mar", "lat": -37.8380, "lon": -57.5080 },
  { "nombre": "Barrio Santa Mónica", "lat": -38.0300, "lon": -57.5600 },
  { "nombre": "Barrio Santa Rosa de Lima", "lat": -38.0050, "lon": -57.5850 },
  { "nombre": "Barrio Sierra de los Padres", "lat": -37.9450, "lon": -57.7750 },
  { "nombre": "Barrio Stella Maris", "lat": -38.0150, "lon": -57.5300 },
  { "nombre": "Barrio Termas Huinco", "lat": -38.0400, "lon": -57.5600 },
  { "nombre": "Barrio Terminal (Vieja)", "lat": -38.0080, "lon": -57.5580 },
  { "nombre": "Barrio Villa Gesell", "lat": -37.2600, "lon": -56.9700 },
  { "nombre": "Barrio Villa Lourdes", "lat": -38.0350, "lon": -57.5600 },
  { "nombre": "Barrio Villa Primera", "lat": -37.9800, "lon": -57.5700 },
  { "nombre": "Barrio Virgen de Lujan", "lat": -37.9550, "lon": -57.6100 },
  { "nombre": "Barrio Zacagnini", "lat": -37.9600, "lon": -57.5550 }
]